{
  "key": "https://environment.data.gov.uk/flood-monitoring/id/floodAreas?lat=52.648115&long=1.732466&dist=3&_limit=50",
  "url": "https://environment.data.gov.uk/flood-monitoring/id/floodAreas?lat=52.648115&long=1.732466&dist=3&_limit=50",
  "retrievedAt": "2026-07-03T13:38:05.070Z",
  "body": {
    "@context": "http://environment.data.gov.uk/flood-monitoring/meta/context.jsonld",
    "meta": {
      "publisher": "Environment Agency",
      "licence": "http://www.nationalarchives.gov.uk/doc/open-government-licence/version/3/",
      "documentation": "http://environment.data.gov.uk/flood-monitoring/doc/reference",
      "version": "0.9",
      "comment": "Status: Beta service",
      "hasFormat": [
        "http://environment.data.gov.uk/flood-monitoring/id/floodAreas.csv?lat=52.648115&long=1.732466&dist=3&_limit=50",
        "http://environment.data.gov.uk/flood-monitoring/id/floodAreas.rdf?lat=52.648115&long=1.732466&dist=3&_limit=50",
        "http://environment.data.gov.uk/flood-monitoring/id/floodAreas.ttl?lat=52.648115&long=1.732466&dist=3&_limit=50",
        "http://environment.data.gov.uk/flood-monitoring/id/floodAreas.html?lat=52.648115&long=1.732466&dist=3&_limit=50"
      ],
      "limit": 50
    },
    "items": [
      {
        "@id": "http://environment.data.gov.uk/flood-monitoring/id/floodAreas/054FWCDV3A5",
        "county": "Norfolk",
        "description": "The Rivers Yare and Bure from Runham Vauxhall to Scare Gap, including Great Yarmouth Railway station, Vauxhall Holiday Park and the Euro Centre Industrial Estate",
        "eaAreaName": "East Anglia",
        "floodWatchArea": "http://environment.data.gov.uk/flood-monitoring/id/floodAreas/054WACDV3A",
        "fwdCode": "054FWCDV3A5",
        "label": "The Rivers Yare and Bure from Runham Vauxhall to Scare Gap, including Vauxhall Holiday Park",
        "lat": 52.62263,
        "long": 1.71239,
        "notation": "054FWCDV3A5",
        "polygon": "http://environment.data.gov.uk/flood-monitoring/id/floodAreas/054FWCDV3A5/polygon",
        "quickDialNumber": "313488",
        "riverOrSea": "North Sea"
      },
      {
        "@id": "http://environment.data.gov.uk/flood-monitoring/id/floodAreas/054WATBT1",
        "county": "Norfolk",
        "description": "The tidal Rivers Bure from Wroxham Bridge, Ant from Honing and Thurne from Hickling, to Breydon Water",
        "eaAreaName": "East Anglia",
        "fwdCode": "054WATBT1",
        "label": "The tidal Rivers Bure, Ant and Thurne",
        "lat": 52.70167,
        "long": 1.56221,
        "notation": "054WATBT1",
        "polygon": "http://environment.data.gov.uk/flood-monitoring/id/floodAreas/054WATBT1/polygon",
        "quickDialNumber": "213300",
        "riverOrSea": "Bure, Ant, Thurne"
      },
      {
        "@id": "http://environment.data.gov.uk/flood-monitoring/id/floodAreas/054FWTBT1A",
        "county": "Norfolk",
        "description": "The tidal River Bure from Scare Gap to Acle Bridge",
        "eaAreaName": "East Anglia",
        "floodWatchArea": "http://environment.data.gov.uk/flood-monitoring/id/floodAreas/054WATBT1",
        "fwdCode": "054FWTBT1A",
        "label": "The tidal River Bure from Scare Gap to Acle Bridge",
        "lat": 52.63345,
        "long": 1.63093,
        "notation": "054FWTBT1A",
        "polygon": "http://environment.data.gov.uk/flood-monitoring/id/floodAreas/054FWTBT1A/polygon",
        "quickDialNumber": "313300",
        "riverOrSea": "River Bure"
      },
      {
        "@id": "http://environment.data.gov.uk/flood-monitoring/id/floodAreas/054FWCDV3A2",
        "county": "Norfolk",
        "description": "The east banks of the Rivers Yare and Bure at Great Yarmouth, from South Quay to the race course, including North Quay, Newtown and Bure Park",
        "eaAreaName": "East Anglia",
        "floodWatchArea": "http://environment.data.gov.uk/flood-monitoring/id/floodAreas/054WACDV3A",
        "fwdCode": "054FWCDV3A2",
        "label": "The east banks of the Rivers Yare and Bure at Great Yarmouth, including North Quay, Newtown and Bure",
        "lat": 52.62014,
        "long": 1.72742,
        "notation": "054FWCDV3A2",
        "polygon": "http://environment.data.gov.uk/flood-monitoring/id/floodAreas/054FWCDV3A2/polygon",
        "quickDialNumber": "313482",
        "riverOrSea": "North Sea"
      },
      {
        "@id": "http://environment.data.gov.uk/flood-monitoring/id/floodAreas/054FWCDV3A7",
        "county": "Norfolk",
        "description": "South Caister from West Road to Freemantle Road, including areas around the High Street, Yarmouth Road, North Denes, the Golf club and the racecourse",
        "eaAreaName": "East Anglia",
        "floodWatchArea": "http://environment.data.gov.uk/flood-monitoring/id/floodAreas/054WACDV3A",
        "fwdCode": "054FWCDV3A7",
        "label": "South Caister from West Road to Freemantle Road, including North Denes",
        "lat": 52.64128,
        "long": 1.72798,
        "notation": "054FWCDV3A7",
        "polygon": "http://environment.data.gov.uk/flood-monitoring/id/floodAreas/054FWCDV3A7/polygon",
        "quickDialNumber": "313492",
        "riverOrSea": "River Bure"
      },
      {
        "@id": "http://environment.data.gov.uk/flood-monitoring/id/floodAreas/054WACDV3A",
        "county": "Norfolk",
        "description": "The Norfolk coast at Caister, north and South Beach at Great Yarmouth, and Gorleston",
        "eaAreaName": "East Anglia",
        "fwdCode": "054WACDV3A",
        "label": "The Norfolk coast from Caister to Gorleston, including Great Yarmouth",
        "lat": 52.60791,
        "long": 1.72626,
        "notation": "054WACDV3A",
        "polygon": "http://environment.data.gov.uk/flood-monitoring/id/floodAreas/054WACDV3A/polygon",
        "quickDialNumber": "213480",
        "riverOrSea": "North Sea"
      }
    ]
  }
}
