{
  "key": "https://environment.data.gov.uk/flood-monitoring/id/floodAreas?lat=51.628763&long=-0.17803&dist=3&_limit=50",
  "url": "https://environment.data.gov.uk/flood-monitoring/id/floodAreas?lat=51.628763&long=-0.17803&dist=3&_limit=50",
  "retrievedAt": "2026-07-03T12:47:54.990Z",
  "body": {
    "@context": "http://environment.data.gov.uk/flood-monitoring/meta/context.jsonld",
    "meta": {
      "publisher": "Environment Agency",
      "licence": "http://www.nationalarchives.gov.uk/doc/open-government-licence/version/3/",
      "documentation": "http://environment.data.gov.uk/flood-monitoring/doc/reference",
      "version": "0.9",
      "comment": "Status: Beta service",
      "hasFormat": [
        "http://environment.data.gov.uk/flood-monitoring/id/floodAreas.csv?lat=51.628763&long=-0.17803&dist=3&_limit=50",
        "http://environment.data.gov.uk/flood-monitoring/id/floodAreas.rdf?lat=51.628763&long=-0.17803&dist=3&_limit=50",
        "http://environment.data.gov.uk/flood-monitoring/id/floodAreas.ttl?lat=51.628763&long=-0.17803&dist=3&_limit=50",
        "http://environment.data.gov.uk/flood-monitoring/id/floodAreas.html?lat=51.628763&long=-0.17803&dist=3&_limit=50"
      ],
      "limit": 50
    },
    "items": [
      {
        "@id": "http://environment.data.gov.uk/flood-monitoring/id/floodAreas/062WAF28Mimmshal",
        "county": "Barnet, Greater London, Hertfordshire",
        "description": "The Mimmshall Brook at Warrengate Road including South Mimms, Potters Bar, Brookmans Park and Welham Green",
        "eaAreaName": "Herts and North London",
        "fwdCode": "062WAF28Mimmshal",
        "label": "Mimmshall Brook",
        "lat": 51.69691,
        "long": -0.22043,
        "notation": "062WAF28Mimmshal",
        "polygon": "http://environment.data.gov.uk/flood-monitoring/id/floodAreas/062WAF28Mimmshal/polygon",
        "quickDialNumber": "214001",
        "riverOrSea": "Mimmshall Brook"
      },
      {
        "@id": "http://environment.data.gov.uk/flood-monitoring/id/floodAreas/062FWF38DollisBk",
        "county": "Barnet, Greater London",
        "description": "The Dollis Brook from Barnet to Hendon including Whetstone and Finchley",
        "eaAreaName": "Herts and North London",
        "floodWatchArea": "http://environment.data.gov.uk/flood-monitoring/id/floodAreas/062WAF38BrentBks",
        "fwdCode": "062FWF38DollisBk",
        "label": "Dollis Brook from Barnet to Hendon",
        "lat": 51.61181,
        "long": -0.1942,
        "notation": "062FWF38DollisBk",
        "polygon": "http://environment.data.gov.uk/flood-monitoring/id/floodAreas/062FWF38DollisBk/polygon",
        "quickDialNumber": "172383",
        "riverOrSea": "Dollis Brook"
      },
      {
        "@id": "http://environment.data.gov.uk/flood-monitoring/id/floodAreas/062WAF38BrentBks",
        "county": "Barnet, Brent, Greater London, Harrow",
        "description": "The Silk Stream and the Deans, Edgware, Dollis, Mutton, Wembley and Wealdstone Brooks and their tributaries",
        "eaAreaName": "Herts and North London",
        "fwdCode": "062WAF38BrentBks",
        "label": "Silk Stream and the Deans, Edgware, Dollis, Mutton, Wembley and Wealdstone Brooks",
        "lat": 51.59658,
        "long": -0.26002,
        "notation": "062WAF38BrentBks",
        "polygon": "http://environment.data.gov.uk/flood-monitoring/id/floodAreas/062WAF38BrentBks/polygon",
        "quickDialNumber": "172387",
        "riverOrSea": "Silk Stream;\r\nDollis Brook;\r\nDeans Brook;\r\nEdgware Brook;\r\nMutton Brook;\r\nWealdstone Brook;\r\nWembley Brook"
      },
      {
        "@id": "http://environment.data.gov.uk/flood-monitoring/id/floodAreas/062FWF53PymmesA",
        "county": "Barnet, Enfield, Greater London",
        "description": "The Pymmes Brook at East Barnet including Cockfosters and New Southgate",
        "eaAreaName": "Herts and North London",
        "floodWatchArea": "http://environment.data.gov.uk/flood-monitoring/id/floodAreas/062WAF53LLTribs",
        "fwdCode": "062FWF53PymmesA",
        "label": "Pymmes Brook at East Barnet",
        "lat": 51.62921,
        "long": -0.14411,
        "notation": "062FWF53PymmesA",
        "polygon": "http://environment.data.gov.uk/flood-monitoring/id/floodAreas/062FWF53PymmesA/polygon",
        "quickDialNumber": "172909",
        "riverOrSea": "Pymmes Brook"
      },
      {
        "@id": "http://environment.data.gov.uk/flood-monitoring/id/floodAreas/062WAF53LLTribs",
        "county": "Barnet, Enfield, Essex, Greater London, Haringey, Hertfordshire, Redbridge, Waltham Forest",
        "description": "The Lower Lee tributaries, including the Nazeing Brook, Ching Brook, Cobbins Brook, Pymmes Brook, Rags Brook, Salmons Brook, Turkey Brook, Trinity Marsh Ditch and the Small River Lee",
        "eaAreaName": "Herts and North London",
        "fwdCode": "062WAF53LLTribs",
        "label": "Lower Lee tributaries",
        "lat": 51.68804,
        "long": -0.10827,
        "notation": "062WAF53LLTribs",
        "polygon": "http://environment.data.gov.uk/flood-monitoring/id/floodAreas/062WAF53LLTribs/polygon",
        "quickDialNumber": "172912",
        "riverOrSea": "Ching Brook, Cobbins Brook, Nazeing Brook, Pymmes Brook, Salmons Brook, Turkey Brook, Small River Lee, Rags Brook, Trinity Marsh Ditch"
      }
    ]
  }
}
