{
  "key": "https://environment.data.gov.uk/flood-monitoring/id/floodAreas?lat=52.715895&long=1.693006&dist=3&_limit=50",
  "url": "https://environment.data.gov.uk/flood-monitoring/id/floodAreas?lat=52.715895&long=1.693006&dist=3&_limit=50",
  "retrievedAt": "2026-07-03T13:38:01.614Z",
  "body": {
    "@context": "http://environment.data.gov.uk/flood-monitoring/meta/context.jsonld",
    "meta": {
      "publisher": "Environment Agency",
      "licence": "http://www.nationalarchives.gov.uk/doc/open-government-licence/version/3/",
      "documentation": "http://environment.data.gov.uk/flood-monitoring/doc/reference",
      "version": "0.9",
      "comment": "Status: Beta service",
      "hasFormat": [
        "http://environment.data.gov.uk/flood-monitoring/id/floodAreas.csv?lat=52.715895&long=1.693006&dist=3&_limit=50",
        "http://environment.data.gov.uk/flood-monitoring/id/floodAreas.rdf?lat=52.715895&long=1.693006&dist=3&_limit=50",
        "http://environment.data.gov.uk/flood-monitoring/id/floodAreas.ttl?lat=52.715895&long=1.693006&dist=3&_limit=50",
        "http://environment.data.gov.uk/flood-monitoring/id/floodAreas.html?lat=52.715895&long=1.693006&dist=3&_limit=50"
      ],
      "limit": 50
    },
    "items": [
      {
        "@id": "http://environment.data.gov.uk/flood-monitoring/id/floodAreas/054FWTBT1F",
        "county": "Norfolk",
        "description": "Trinity Broads from Billockby to Hemsby",
        "eaAreaName": "East Anglia",
        "floodWatchArea": "http://environment.data.gov.uk/flood-monitoring/id/floodAreas/054WATBT1",
        "fwdCode": "054FWTBT1F",
        "label": "Trinity Broads from Billockby to Hemsby",
        "lat": 52.67253,
        "long": 1.63914,
        "notation": "054FWTBT1F",
        "polygon": "http://environment.data.gov.uk/flood-monitoring/id/floodAreas/054FWTBT1F/polygon",
        "quickDialNumber": "313325",
        "riverOrSea": "Trinity Broads"
      },
      {
        "@id": "http://environment.data.gov.uk/flood-monitoring/id/floodAreas/054FWCDV2B",
        "county": "Norfolk",
        "description": "The Norfolk coast at Eccles on Sea, Whimpwell Green, Lessingham, Sea Palling, Waxham, Horsey, Somerton and Winterton-on-Sea",
        "eaAreaName": "East Anglia",
        "floodWatchArea": "http://environment.data.gov.uk/flood-monitoring/id/floodAreas/054WACDV2B",
        "fwdCode": "054FWCDV2B",
        "label": "The Norfolk coast from Eccles on Sea, to and including, Winterton-on-Sea",
        "lat": 52.76232,
        "long": 1.61569,
        "notation": "054FWCDV2B",
        "polygon": "http://environment.data.gov.uk/flood-monitoring/id/floodAreas/054FWCDV2B/polygon",
        "quickDialNumber": "313476",
        "riverOrSea": "North Sea"
      },
      {
        "@id": "http://environment.data.gov.uk/flood-monitoring/id/floodAreas/054WACDV2B",
        "county": "Norfolk",
        "description": "The Norfolk coast at Eccles on Sea, Whimpwell Green, Lessingham, Sea Palling, Waxham, Horsey, Somerton and Winterton-on-Sea",
        "eaAreaName": "East Anglia",
        "fwdCode": "054WACDV2B",
        "label": "The Norfolk coast from Eccles on Sea, to and including, Winterton-on-Sea",
        "lat": 52.76392,
        "long": 1.61493,
        "notation": "054WACDV2B",
        "polygon": "http://environment.data.gov.uk/flood-monitoring/id/floodAreas/054WACDV2B/polygon",
        "quickDialNumber": "213476",
        "riverOrSea": "North Sea"
      },
      {
        "@id": "http://environment.data.gov.uk/flood-monitoring/id/floodAreas/054WATBT1",
        "county": "Norfolk",
        "description": "The tidal Rivers Bure from Wroxham Bridge, Ant from Honing and Thurne from Hickling, to Breydon Water",
        "eaAreaName": "East Anglia",
        "fwdCode": "054WATBT1",
        "label": "The tidal Rivers Bure, Ant and Thurne",
        "lat": 52.70167,
        "long": 1.56221,
        "notation": "054WATBT1",
        "polygon": "http://environment.data.gov.uk/flood-monitoring/id/floodAreas/054WATBT1/polygon",
        "quickDialNumber": "213300",
        "riverOrSea": "Bure, Ant, Thurne"
      }
    ]
  }
}
